station,catchment,district,latitude,longitude,Koppen,Thorntwaite
JHUNJHUNU,403,JHUNJHUNU,28.008,75.023,Aw,DA'w
CHIRAWA,403,JHUNJHUNU,28.014,75.039,Aw,DA'w
KHETRI,403,JHUNJHUNU,28,75.048,Aw,DA'w
UDAIPURWATI,403,JHUNJHUNU,27.043,75.029,Aw,DA'w
PILANI (A),403,JHUNJHUNU,28.021,75.036,Bshw,DA'w
BHARATPUR,403,BHARATPUR,27.03,77,Cwq,DA'w
DEEG,403,BHARATPUR,27.08,77,Cwq,DA'w
KAMAN,403,BHARATPUR,27.09,77.06,Cwq,DA'w
KUMBHER,403,BHARATPUR,27.09,77.02,Cwq,DA'w
NAGAR,403,BHARATPUR,27.06,77.05,Cwq,DA'w
PAHARI,403,BHARATPUR,27.02,77,Cwq,DA'w
RUPWAS,403,BHARATPUR,27,77.05,Cwq,DA'w
WEIR,403,BHARATPUR,27.01,77,Cwq,DA'w
SEWAR BUNDH *,403,BHARATPUR,27.05,77,Cwq,DA'w
HINGOTA*,403,BHARATPUR,27.07,77.02,Cwq,DA'w
UCHAIN*,403,BHARATPUR,27.06,77.09,Cwq,DA'w
HALENA*,403,BHARATPUR,27.07,77.07,Cwq,DA'w
MOTIJHEEL*,403,BHARATPUR,27.04,77,Cwq,DA'w
HINGOTA *,403,BHARATPUR,27.007,77.002,Cwq,DA'w
NAGAUR,600,NAGAUR,27.012,74.045,Bshw,DA'w
DIDWANA,600,NAGAUR,27.024,74.035,Bshw,DA'w
PARBATSAR,600,NAGAUR,26.053,74.035,Bshw,DA'w
MERTA CITY,108,NAGAUR,26.038,74.002,Bshw,DA'w
NAWA,600,NAGAUR,27.001,75,Bshw,DA'w
JAYAL,600,NAGAUR,27.013,74.012,Bshw,DA'w
DEGANA,600,NAGAUR,26.054,74.02,Bshw,DA'w
LADNU,600,NAGAUR,27.038,74.023,Bshw,DA'w
SIKAR,600,SIKAR,27.037,75.009,Bshw,DA'w
NEEM KA THANA,403,SIKAR,27.044,75.047,Bshw,DA'w
DANTA RAMGARH,600,SIKAR,27.015,75.012,Bshw,DA'w
SRIMADHOPUR,600,SIKAR,27.028,75.036,Bshw,DA'w
FATEHPUR,600,SIKAR,27.059,74.058,Bshw,DA'w
LAXMANGARH,600,SIKAR,27.049,75.002,Bshw,DA'w
RAMGARH,600,SIKAR,27.015,75.01,Bshw,DA'w
SIKAR (A),600,SIKAR,27.037,75.008,Bshw,DA'w
JODHPUR,108,JODHPUR,26.018,73.002,Bshw,DA'w
BILARA,108,JODHPUR,26.011,73.042,Bshw,DA'w
SHERGARH,108,JODHPUR,26.02,72.018,Bshw,DA'w
OSIAN,108,JODHPUR,26.043,72.055,Bshw,DA'w
PHALODI,600,JODHPUR,27.008,72.022,Bshw,EA'd
JODHPUR (A),108,JODHPUR,26.018,73.001,Bshw,DA'w
BASWA,406,DAUSA,27.09,76.05,Cwq,DA'w
DAUSA,406,DAUSA,26.04,76,Cwq,DA'w
LALSOT,406,DAUSA,26.03,76,Cwq,DA'w
MAHUWA,406,DAUSA,27.03,76.05,Cwq,DA'w
SIKRAI,406,DAUSA,26.05,76.02,Cwq,DA'w
SENTHAL SAGAR *,406,DAUSA,27.06,76,Cwq,DA'w
MOREL DAM*,406,DAUSA,26.07,76.02,Cwq,DA'w
BASWA,406,DAUSA,27.009,76.035,Cwq,DA'w
LALSOT,406,DAUSA,26.033,76.02,Cwq,DA'w
MAHUWA,406,DAUSA,27.003,76.055,Cwq,DA'w
SIKRAI,406,DAUSA,26.055,76.042,Cwq,DA'w
SENTHAL SAGAR *,406,DAUSA,27.006,76.02,Cwq,DA'w
BASWA,403,JAIPUR,27.09,76,Cwq,DA'w
KISHANGANJ,405,BARAN,26.006,76.039,Cwq,DA'w
MANDAL,406,BHILWARA,25.09,74.05,Cwq,DA'w
SHAHPURA,406,BHILWARA,25.07,74.06,Cwq,DA'w
ARWAR DAM *,406,BHILWARA,25.08,74.09,Cwq,DA'w
KOTHARI DAM *,406,BHILWARA,25.08,75,Cwq,DA'w
AJMER,108,AJMER,26.027,74.037,Bshw,DA'w
ARAIN,406,AJMER,26.027,75.003,Cwq,DA'w
BHINAI,406,AJMER,26.004,74.046,Bshw,DA'w
GOELA,406,AJMER,26.007,74.057,Bshw,DA'w
KISHANGARH,406,AJMER,26.034,74.051,Bshw,DA'w
MANGALIAWAS,108,AJMER,26.017,74.037,Bshw,DA'w
NASIRABAD,406,AJMER,26.017,74.044,Bshw,DA'w
PISANGAN,108,AJMER,26.024,74.023,Bshw,DA'w
PUSHKAR,108,AJMER,26.03,74.033,Bshw,DA'w
SAWAR,406,AJMER,26.004,75.001,Cwq,DA'w
SRINAGAR,406,AJMER,26.026,74.04,Bshw,DA'w
AJMER,108,AJMER,26.07,74.07,Bshw,DA'w
ARAIN,406,AJMER,26.07,75.03,Cwq,DA'w
BHINAI,406,AJMER,26.04,74.06,Bshw,DA'w
JAWAJA,108,AJMER,25.07,74.03,Cwq,DA'w
KEKRI,406,AJMER,25.08,75.09,Cwq,DA'w
KISHANGARH,406,AJMER,26.04,74.01,Bshw,DA'w
NASIRABAD,406,AJMER,26.07,74.04,Bshw,DA'w
PISANGAN,108,AJMER,26.04,74.03,Bshw,DA'w
PUSHKAR,108,AJMER,26,74.03,Bshw,DA'w
SAWAR,406,AJMER,26.04,75.01,Cwq,DA'w
SRINAGAR,406,AJMER,26.06,74,Bshw,DA'w
SRINAGAR,406,AJMER,26.06,74.06,Bshw,DA'w
BEAWAR,108,AJMER,26.06,74.09,Bshw,DA'w
MALPURA,406,TONK,26.017,75.023,Cwq,DA'w
NIWAI,406,TONK,26.021,75.055,Cwq,DA'w
TODARAISINGH,406,TONK,26.002,75.029,Cwq,DA'w
TONK,406,TONK,26.01,75.048,Cwq,DA'w
MASHI TANK *,406,TONK,26.011,75.045,Cwq,DA'w
TORDI SAGAR *,406,TONK,26.012,75.025,Cwq,DA'w
TONK (A),406,TONK,26.01,75.045,Cwq,DA'w
CHOHTAN,108,BARMER,25.09,71.04,Bshw,DA'w
SHEO,108,BARMER,26.01,71.05,Bshw,EA'd
SIWANA,108,BARMER,25.09,72.05,Bshw,DA'w
BIKANER,600,BIKANER,28.01,73.08,Bwhw,DB'w
LUNKARANSAR,600,BIKANER,28,73.05,Bwhw,DB'w
MAGRA ( KOT.),600,BIKANER,28.01,73,Bwhw,DB'w
SURPURA ( NOKHA ),600,BIKANER,27.05,73.09,Bshw,DA'w
DUNGARGARH,600,BIKANER,28.04,74,Bwhw,DB'w
PUNGAL,600,BIKANER,27.01,73.05,Bshw,DA'w
BIKANER,600,BIKANER,28.001,73.018,Bwhw,DB'w
JAITARAN,108,PALI,26.012,73.057,Bshw,DA'w
RAIPUR,108,PALI,26.003,74.002,Bshw,DA'w
BAR *,108,PALI,26.005,74.005,Bshw,DA'w
GIRINANDA *,108,PALI,26.017,74.012,Bshw,DA'w
SARDARSAMAND *,108,PALI,26.001,73.023,Bshw,DA'w
CHOPRA *,108,PALI,26.003,73.025,Bshw,DA'w
KAROLI,406,KAROLI,26.03,76.001,Cwq,DA'w
SAPOTARA,406,KAROLI,26.017,76.045,Cwq,DA'w
TODABHIM,406,KAROLI,26.055,76.049,Cwq,DA'w
NADOTI,406,KAROLI,26.043,76.044,Cwq,DA'w
SRI MAHAVEERJI*,406,KAROLI,26.042,76.055,Cwq,DA'w
KALISIL*,406,KAROLI,26.017,76.046,Cwq,DA'w
KELADEVI*,406,KAROLI,26.02,76.055,Cwq,DA'w
KALISIL*,406,KAROLI,26.016,76.049,Cwq,DA'w
KHANDAR,406,SAWAI MADHO,26.001,76.037,Cwq,DA'w
GANGAPUR CITY,406,SAWAI MADHO,26.029,76.044,Cwq,DA'w
BAMANWAS,406,Sawaimadhopur,26.03,76.035,Cwq,DA'w
BONLI,406,Sawaimadhopur,26.02,76.014,Cwq,DA'w
MORANSAGAR *,406,Sawaimadhopur,26.041,76.033,Cwq,DA'w
DHEEL BUND *,405,Sawaimadhopur,26.012,76.008,Cwq,DA'w
AMBER,406,JAIPUR,26.059,75.052,Cwq,DA'w
BAIRATH,403,JAIPUR,27.027,76.011,Cwq,DA'w
BASSI,406,JAIPUR,26.05,76.004,Cwq,DA'w
CHAKSU,406,JAIPUR,26.036,75.057,Cwq,DA'w
CHOMU,600,JAIPUR,27.01,75.043,Bshw,DA'w
DUDU ( MOZMABAD ),406,JAIPUR,26.041,75.014,Cwq,DA'w
JAIPUR,406,JAIPUR,26.055,76.05,Cwq,DA'w
JAMWA RAMGARH,403,JAIPUR,27.004,76.002,Cwq,DA'w
KOTPUTLI,403,JAIPUR,27.043,76.013,Cwq,DA'w
NARAINA,406,JAIPUR,26.048,75.013,Cwq,DA'w
PAOTA,403,JAIPUR,26.052,76.056,Cwq,DA'w
PHAGI,406,JAIPUR,26.035,75.034,Cwq,DA'w
PHULERA,406,JAIPUR,26.045,75.014,Cwq,DA'w
SAMBHAR,600,JAIPUR,26.055,75.011,Cwq,DA'w
SANGANER,406,JAIPUR,26.048,75.047,Cwq,DA'w
KANOTA*,406,JAIPUR,26.053,75.057,Cwq,DA'w
RAMGARH DAM*,406,JAIPUR,27.002,76.002,Cwq,DA'w
CHAPPARWARA*,406,JAIPUR,26.037,75.015,Cwq,DA'w
SAMOD,406,JAIPUR,27.01,75.045,Bshw,DA'w
AMBER,406,JAIPUR,26.09,75.02,Cwq,DA'w
BAIRATH,403,JAIPUR,27.07,76.01,Cwq,DA'w
BASSI,406,JAIPUR,26,76.04,Cwq,DA'w
CHAKSU,406,JAIPUR,26.06,75.07,Cwq,DA'w
CHOMU,600,JAIPUR,27,75.03,Bshw,DA'w
DUDU ( MOZMABAD ),406,JAIPUR,26.01,75.04,Cwq,DA'w
JAIPUR,406,JAIPUR,26.05,76,Cwq,DA'w
JAMWA RAMGARH,403,JAIPUR,27.04,76.02,Cwq,DA'w
KOTPUTLI,403,JAIPUR,27.03,76.03,Cwq,DA'w
NARAINA,406,JAIPUR,26.08,75.03,Cwq,DA'w
PAOTA,403,JAIPUR,26.02,76.06,Cwq,DA'w
PHAGI,406,JAIPUR,26.05,75.04,Cwq,DA'w
SAMBHAR,600,JAIPUR,26.05,75.01,Cwq,DA'w
SAMOD,406,JAIPUR,27,75.05,Bshw,DA'w
SANGANER,406,JAIPUR,26.08,75.07,Cwq,DA'w
KANOTA*,406,JAIPUR,26.03,75.07,Cwq,DA'w
KANOTA*,406,JAIPUR,26.03,75.06,Cwq,DA'w
JAIPUR*,406,JAIPUR,26.05,75,Cwq,DA'w
CHAPPARWARA*,406,JAIPUR,26.09,75.04,Cwq,DA'w
JAIPUR AD. ( A ),406,JAIPUR,26.049,75.048,Cwq,DA'w
JOBNER AGRO,600,JAIPUR,27,75.005,Bshw,DA'w
JAIPUR (A),406,JAIPUR,26.04,75.08,Cwq,DA'w
JAIPUR ( AD.),406,JAIPUR,26.09,75.08,Cwq,DA'w
SIKRAI,403,JAIPUR,26,76.02,Cwq,DA'w
J.RAMGARH,403,JAIPUR,27,76,Cwq,DA'w
DAUSA,406,JAIPUR,26.054,76.02,Cwq,DA'w
GANGANAGAR (A),202,GANGANAGAR,29.055,73.053,Bwhw,DB'w
KARANPUR,202,GANGANAGAR,29.035,74.019,Bwhw,DB'w
PADAMPUR,202,GANGANAGAR,29.041,73.037,Bwhw,DB'w
RAISINGH NAGAR,202,GANGANAGAR,29.032,73.027,Bwhw,DB'w
ANUPGARH,202,GANGANAGAR,29.012,73.014,Bwhw,DB'w
SURATGARH,202,GANGANAGAR,29.019,73.045,Bwhw,DB'w
NOHAR,202,GANGANAGAR,29.011,74.046,Bwhw,DB'w
BHADRA,202,GANGANAGAR,29.008,75.01,Bwhw,DB'w
SADULSHAHAR,202,GANGANAGAR,29.054,73.01,Bwhw,DB'w
SANGARIA,202,GANGANAGAR,29.05,74.027,Bwhw,DB'w
TIBI,202,GANGANAGAR,29.032,74.03,Bwhw,DB'w
NETAWALI *,202,GANGANAGAR,29.05,73.055,Bwhw,DB'w
CHUNABAD *,202,GANGANAGAR,29.056,73.046,Bwhw,DB'w
SULEMANKI *,202,GANGANAGAR,29.045,73.043,Bwhw,DB'w
FAQIRWALI *,202,GANGANAGAR,29.037,73.043,Bwhw,DB'w
JETSARÂ ,202,GANGANAGAR,29.021,73.04,Bwhw,DB'w
RAMSINGHPUR *,202,GANGANAGAR,29.012,73.023,Bwhw,DB'w
SHRI VIJAY NAGAR *,202,GANGANAGAR,29.015,73.032,Bwhw,DB'w
DABLA *,202,GANGANAGAR,29.03,73.038,Bwhw,DB'w
GAJSINGPUR *,202,GANGANAGAR,29.039,73.028,Bwhw,DB'w
KESRISINGH *,202,GANGANAGAR,29.056,73.038,Bwhw,DB'w
PABUSAR *,202,GANGANAGAR,29.045,73.029,Bwhw,DB'w
SUREWALA *,202,GANGANAGAR,29.036,74.034,Bwhw,DB'w
GUDIA *,202,GANGANAGAR,29.049,74.032,Bwhw,DB'w
PUCCASARNAR *,202,GANGANAGAR,29.041,74.01,Bwhw,DB'w
SUNDERPURA *,202,GANGANAGAR,29.031,73.05,Bwhw,DB'w
DHABAN *,202,GANGANAGAR,29.054,74.031,Bwhw,DB'w
KHAT *,202,GANGANAGAR,29.005,73.02,Bwhw,DB'w
Â PILIBANGAN *,202,GANGANAGAR,29.027,74.004,Bwhw,DB'w
KARNISAR *,202,GANGANAGAR,29.023,73.053,Bwhw,DB'w
CHHANI *,202,GANGANAGAR,29.013,75.02,Bwhw,DB'w
RAMGARH *,202,GANGANAGAR,29.013,74.058,Bwhw,DB'w
PHEPHANA *,202,GANGANAGAR,29.021,74.054,Bwhw,DB'w
Â T.A.SINGH *,202,GANGANAGAR,29.01,73.015,Bwhw,DB'w
DHOLAPANI *,202,GANGANAGAR,29.045,74.016,Bwhw,DB'w
CHHANI,202,GANGANAGAR,29.015,73.022,Bwhw,DB'w
CHURU,600,CHURU,28.08,74.08,Bshw,DB'w
RAJGARH,600,CHURU,28.08,75.03,Bshw,DB'w
RATANGARH,600,CHURU,28.05,74.07,Bshw,DB'w
SARDARSHAHAR,600,CHURU,28.06,74.09,Bshw,DB'w
SUJANGARH,600,CHURU,27.02,74.09,Bshw,DA'w
TARANAGAR,600,CHURU,28,75.02,Bshw,DB'w
CHURU,600,CHURU,28.018,74.058,Bshw,DB'w
RAJGARH,600,CHURU,28.038,75.023,Bshw,DB'w
RAMGARH,600,JAISALMER,27.022,70.03,Bwhw,EA'd
FATEHGARH,600,JAISALMER,26.03,71.011,Bshw,EA'd
POKARAN,600,JAISALMER,26.056,71.055,Bshw,EA'd
NOKH,600,JAISALMER,27.034,72.016,Bwhw,EA'd
MANSAROWAR *,406,Sawaimadhopur,26.02,76.027,Cwq,DA'w
DUBBI-BANAS *,406,Sawaimadhopur,26.012,76.055,Cwq,DA'w
MAHUWA,403,Sawaimadhopur,27.003,76.056,Cwq,DA'w
NADOTI,403,Sawaimadhopur,26.04,76.05,Cwq,DA'w
BIRAN *,108,JODHPUR,26.037,73.02,Bshw,DA'w
JASWANT SAGARÂ Â *,108,JODHPUR,26.013,73.041,Bshw,DA'w
ALWAR,403,ALWAR,27.04,76.06,Cwq,DA'w
BANSUR,403,ALWAR,27.02,76.01,Cwq,DA'w
BEHROD,403,ALWAR,27.03,76.07,Cwq,DA'w
GOVINDGARH,403,ALWAR,27,77,Cwq,DA'w
KATHUMBAR,403,ALWAR,27,77.03,Cwq,DA'w
KISHANGARH BAS,403,ALWAR,27.09,76.03,Cwq,DA'w
LAXMANGARH,403,ALWAR,27.02,76.02,Cwq,DA'w
MALAKHERA,403,ALWAR,27.03,76.08,Cwq,DA'w
MUNDAWAR,403,ALWAR,27.02,76.03,Cwq,DA'w
RAJGARH,403,ALWAR,27.04,76.07,Cwq,DA'w
RAMGARH,403,ALWAR,27.05,76,Cwq,DA'w
THANAGAJI,403,ALWAR,27.04,76.09,Cwq,DA'w
ALWAR,403,ALWAR,27.034,76.036,Cwq,DA'w
JAISAMAND *,403,ALWAR ,27.029,76.03,Cwq,DA'w
MAGALSAR *,403,ALWAR ,27.014,76.02,Cwq,DA'w
NAGAUR (A),600,NAGAUR,27.01,73.04,Bshw,DA'w
BUNDI,405,BUNDI,25.07,75.08,Cwq,DA'w
KESHORAIPATAN,405,BUNDI,25.08,75.07,Cwq,DA'w
TALERA,405,BUNDI,25.09,75.04,Cwq,DA'w
INDERGARH,405,BUNDI,25.07,76.1,Cwq,DA'w
INDERGARH,405,BUNDI,25.07,76,Cwq,DA'w
BHADRA,403,HANUMANGARH,29.007,75.01,Cwq,DB'w
KARANPUR,202,GANGANAGAR,29.05,73.028,Bwhw,DB'w
BARINGAN,202,GANGANAGAR,29.049,73.031,Bwhw,DB'w
KESRISINGHPUR,202,GANGANAGAR,29.057,73.037,Bwhw,DB'w
MANAKSAR,202,GANGANAGAR,29.04,74.022,Bwhw,DB'w
PACCASARNA,202,GANGANAGAR,29.041,74.001,Bwhw,DB'w
RAMSINGHPUR,202,GANGANAGAR,29.012,73.008,Bwhw,DB'w
SUREWALA,202,GANGANAGAR,29.026,74.034,Bwhw,DB'w
PILANI (A),403,JHUNJHUNU,28.02,75.035,Bshw,DB'w
CHIRAWA,403,JHUNJHUNU,28,75,Bshw,DB'w
GARHI,105,BANSWARA,23.06,74.08,,
GARHI,105,Banswara,2,7,,
GARHI,105,BANSWARA,23.01,74.03,,
BARI,403,DHOLPUR,26.039,77.036,,
BARI,403,DHOLPUR,26.039,77.036,,
BARI,403,BHARATPUR,26.039,77.036,,
DHOLPUR,403,DHOLPUR,26.042,77.053,,
DHOLPUR,403,DHOLPUR,26.042,77.053,,
DHOLPUR,403,Dholpur,2,7,,
DHOLPUR,403,BHARATPUR,26.042,77.053,,
DHOLPUR,403,BHARATPUR,27.03,77,,
JASWANTPURA,108,JALORE,24.048,72.028,,
JASWANTPURA,108,JALORE,24.048,72.028,,
JASWANTPURA,108,JALORE,25.021,72.037,,
JASWANTPURA,108,Jalore,2,7,,
PINDWARA,107,SIROHI,24.047,73.003,,
PINDWARA,107,SIROHI,24.029,72.048,,
PINDWARA,107,SIROHI,24.047,73.003,,
PINDWARA,107,SIROHI,24.06,72.043,,
PINDWARA,107,Sirohi,2,7,,
PINDWARA,107,SIROHI,24.047,73.003,,
SABLA,105,DUNGARPUR,23.051,74.01,,
SABLA,105,DUNGARPUR,23.051,74.01,,
SABLA,105,Dungarpur,2,7,,
SABLA,105,DUNGARPUR,23.051,74.01,,
TIBI,202,GANGANAGAR,"290 32"" N","740 30"" E",,
TIBI,202,HANUMANGARH,"290 32"" N","740 30"" E",,
TIBI,202,HANUMANGARH,"290 32"" N","740 30"" E",,
TIBI,202,GANGANAGAR,"290 32"" N","740 30"" E",,
TIBI,202,GANGANAGAR,"290 27"" N","740 04"" E",,
NATHDWARA,105,UDAIPUR,24.006,74.028,,
NATHDWARA,105,UDAIPUR,23.059,73.036,,
NATHDWARA,106,UDAIPUR,25.002,74.008,,
NATHDWARA,105,UDAIPUR,24.008,74.003,,
NATHDWARA,106,UDAIPUR,24.055,73.05,,
NATHDWARA,106,UDAIPUR,24.055,73.05,,
NATHDWARA,106,RAJSAMAND,24.055,73.05,,
NATHDWARA,406,Udaipur,2,7,,
NATHDWARA,406,UDAIPUR,24.056,73.05,,
NATHDWARA,106,UDAIPUR,24.035,73.042,,
NATHDWARA,406,RAJSAMMAND,24.056,73.05,,
NATHDWARA,406,RAJSAMAND,24.056,73.05,,
NATHDWARA,406,RAJSAMMAND,24.056,73.05,,
NATHDWARA,106,RAJSAMAND,24.055,73.05,,
NOHAR,202,GANGANAGAR,"290 11"" N","740 46"" E",,
NOHAR,600,HANUMANGARH,"290 11"" N","740 46"" E",,
NOHAR,202,HANUMANGARH,"290 11"" N","740 46"" E",,
NOHAR,202,HANUMANGARH,"290 11"" N","740 46"" E",,
NOHAR,202,GANGANAGAR,"290 11"" N","740 46"" E",,
NOHAR,202,GANGANAGAR,"290 15"" N","730 22"" E",,
NOHAR,600,Ganganagar,2911,7446,,
NOHAR,600,GANGANAGAR,"290 11"" N","740 46"" E",,
SANGARIA,202,GANGANAGAR,"290 50"" N","740 27"" E",,
SANGARIA,202,HANUMANGARH,"290 50"" N","740 27"" E",,
SANGARIA,202,HANUMANGARH,"290 50"" N","740 27"" E",,
SANGARIA,202,GANGANAGAR,"290 50"" N","740 27"" E",,
TALABSHAHI*,403,DHOLPUR,26.031,77.022,,
BAMANWAS,406,Sawaimadhopur,"260 30"" N","760 35"" E",,
BAMANWAS,406,Sawaimadhopur,"260 20"" N","760 14"" E",,
BAMANWAS,406,Sawaimadhopur,"260 30"" N","760 35"" E",,
BAMANWAS,406,Sawaimadhopur,"260 41"" N","760 33"" E",,
BAMANWAS,406,Sawai Madhopur,2630,7635,,
BAMANWAS,406,SAWAIMADHOPUR,"260 30"" N","760 35"" E",,
VALLABH NAGAR,406,UDAIPUR,24.052,74,,
VALLABH NAGAR,106,UDAIPUR,25.01,73.034,,
VALLABH NAGAR,406,UDAIPUR,24.052,74,,
VALLABH NAGAR,406,Udaipur,24.052,74,,
VALLABH NAGAR,106,UDAIPUR,25.019,73.056,,
VALLABH NAGAR,106,UDAIPUR,25.034,73.058,,
JAISALMER,600,JAISALMER,26.055,70.055,,
JAISALMER,600,JAISALMER,26.03,71.011,,
JAISALMER,600,Jaisalmer,2,7,,
JAISALMER,600,JAISALMER,26.055,70.055,,
JAISALMER,600,JAISALMER,26.055,70.055,,
JAISALMER,600,JAISALMER,27.022,70.03,,
RAJSAMAND,106,UDAIPUR,24.055,73.05,,
RAJSAMAND,106,UDAIPUR,24.004,73.053,,
RAJSAMAND,106,UDAIPUR,24.004,73.053,,
RAJSAMAND,106,RAJSAMMAND,24.004,73.053,,
RAJSAMAND,406,UDAIPUR,24.047,73.059,,
RAJSAMAND,406,Udaipur,2,7,,
RAJSAMAND,406,UDAIPUR,25.004,73.053,,
RAJSAMAND,106,UDAIPUR,25.045,74.005,,
RAJSAMAND,406,RAJSAMMAND,25.004,73.053,,
RAJSAMAND,406,RAJSAMAND,25.004,73.053,,
RAJSAMAND,406,RAJSAMMAND,25.004,73.053,,
RAJSAMAND,106,RAJSAMMAND,24.004,73.053,,
DEOGARH,106,UDAIPUR,25.034,73.058,,
DEOGARH,106,UDAIPUR,25.034,73.058,,
DEOGARH,106,RAJSAMMAND,25.034,73.058,,
DEOGARH,406,Udaipur,2,7,,
DEOGARH,406,UDAIPUR,25.032,73.055,,
DEOGARH,106,UDAIPUR,24.022,73.01,,
DEOGARH,406,RAJSAMMAND,25.032,73.055,,
DEOGARH,406,RAJSAMAND,25.032,73.055,,
DEOGARH,406,RAJSAMMAND,25.032,73.055,,
DEOGARH,106,RAJSAMMAND,25.034,73.058,,
GOGUNDA,106,UDAIPUR,24.004,73.053,,
GOGUNDA,106,UDAIPUR,24.055,73.05,,
GOGUNDA,106,UDAIPUR,24.022,73.01,,
GOGUNDA,406,UDAIPUR,24.052,74,,
GOGUNDA,106,UDAIPUR,24.045,73.034,,
GOGUNDA,106,UDAIPUR,24.024,73.028,,
SHAHBAD,407,BARAN,25.015,77.008,,
SHAHBAD,407,KOTA,25.015,77.008,,
SHAHBAD,405,KOTA,25.015,77.008,,
SHAHBAD,407,Kota,2,7,,
SHAHBAD,407,KOTA,25.015,77.008,,
SHAHBAD,407,BARAN,25.015,77.008,,
KUMBHALGARH,106,UDAIPUR,25.019,73.056,,
KUMBHALGARH,105,UDAIPUR,23.059,73.036,,
KUMBHALGARH,105,UDAIPUR,24.006,74.028,,
KUMBHALGARH,106,UDAIPUR,25.01,73.034,,
KUMBHALGARH,106,UDAIPUR,25.01,73.034,,
KUMBHALGARH,106,RAJSAMMAND,25.01,73.034,,
KUMBHALGARH,406,UDAIPUR,24.052,74,,
KUMBHALGARH,108,Udaipur,2,7,,
KUMBHALGARH,108,UDAIPUR,25.009,73.035,,
KUMBHALGARH,106,UDAIPUR,24.035,73.042,,
KUMBHALGARH,108,RAJSAMMAND,25.009,73.035,,
KUMBHALGARH,108,RAJSAMAND,25.009,73.035,,
KUMBHALGARH,108,RAJSAMMAND,25.009,73.055,,
KUMBHALGARH,106,RAJSAMMAND,25.01,73.034,,
SAM,600,JAISALMER,26.05,70.03,,
SAM,600,JAISALMER,27.022,70.03,,
SAM,600,Jaisalmer,2,7,,
SAM,600,JAISALMER,26.05,70.03,,
SAM,600,JAISALMER,26.05,70.03,,
SAM,600,JAISALMER,26.03,71.011,,
SAM,600,JAISALMER,27.034,72.016,,
REODHAR,107,SIROHI,24.038,72.032,,
REODHAR,107,SIROHI,24.038,72.032,,
REODHAR,107,SIROHI,24.038,72.032,,
BEGUN,404,CHITTORGARH,24.059,75.008,,
BEGUN,404,CHITTORGARH,24.09,75.08,,
SANGOD,405,BARAN,24.056,76.017,,
SANGOD,405,KOTA,24.056,76.017,,
SANGOD,405,KOTA,24.053,75.057,,
SANGOD,405,Kota,2,7,,
SANGOD,405,KOTA,24. 6,76.017,,
SANGOD,405,Kota,24.056,76.017,,
KHERWARA,106,UDAIPUR,25.045,74.005,,
KHERWARA,105,-,23.059,73.036,,
KHERWARA,105,UDAIPUR,23.059,73.036,,
KHERWARA,105,UDAIPUR,23.059,73.036,,
KHERWARA,106,UDAIPUR,24.022,73.01,,
KHERWARA,105,Udaipur,2,7,,
KHERWARA,105,Udaipur,23.059,73.036,,
KHERWARA,106,UDAIPUR,24.024,73.028,,
LOHARIA,105,BANSWARA,23.06,74.04,,
LOHARIA,105,BANSWARA,23.05,74.06,,
LOHARIA,105,BANSWARA,23.01,74.01,,
SHAHPURA,406,BHILWARA,250 37' N,740 56' E,,
SHAHPURA,406,BHILWARA,25037' N,74056' E,,
SHAHPURA,406,BHILWARA,"25037"" N","74056"" E",,
SHAHPURA,406,Bhilwara,2537,7456,,
SHAHPURA,406,BHILWARA,25030' N,74040' E,,
SAGWARA,105,DUNGARPUR,23.041,74.002,,
SAGWARA,105,DUNGARPUR,23.041,74.002,,
SAGWARA,105,DUNGARPUR,23.05,74.006,,
SAGWARA,105,Dungarpur,2,7,,
SAGWARA,105,DUNGARPUR,23.041,74.002,,
SEPAU,403,DHOLPUR,26.049,77.045,,
SEPAU,403,DHOLPUR,26.049,77.045,,
SEPAU,403,BHARATPUR,26.049,77.045,,
SEPAU,403,Bharatpur,26.049,77.045,,
BONLI,406,Sawaimadhopur,"260 20"" N","760 14"" E",,
BONLI,406,Sawaimadhopur,"260 20"" N","760 14"" E",,
BONLI,406,Sawai Madhopur,2620,7614,,
BONLI,406,SAWAIMADHOPUR,"260 20"" N","760 14"" E",,
ABU ROAD,107,SIROHI,24.029,72.048,,
ABU ROAD,107,SIROHI,24.047,73.003,,
ABU ROAD,107,SIROHI,24.029,72.048,,
ABU ROAD,108,SIROHI,25.007,73.004,,
ABU ROAD,107,SIROHI,24.029,72.048,,
KANBA,105,DUNGARPUR,23.049,73.033,,
KANBA,105,DUNGARPUR,23.055,74.018,,
TIJARA,403,ALWAR,27.07,76.01,,
TIJARA,403,ALWAR,27.07,76.01,,
TIJARA,403,Alwar,27.07,76.01,,
MAVLI,106,UDAIPUR,24.035,73.042,,
MAVLI,406,UDAIPUR,24.047,73.059,,
MAVLI,106,UDAIPUR,25.019,73.056,,
MAVLI,406,UDAIPUR,24.047,73.059,,
MAVLI,406,Udaipur,2,7,,
MAVLI,406,Udaipur,24.047,73.059,,
MAVLI,106,UDAIPUR,25.034,73.058,,
GEGAL,406,AJMER,26.04,75.01,,
AMET,105,UDAIPUR,23.059,73.036,,
AMET,106,UDAIPUR,25.019,73.056,,
AMET,106,UDAIPUR,24.024,73.028,,
AMET,106,UDAIPUR,25.019,73.056,,
AMET,105,UDAIPUR,24.006,74.028,,
AMET,406,Udaipur,2,7,,
AMET,406,UDAIPUR,25.018,73.055,,
AMET,106,UDAIPUR,25.01,73.034,,
AMET,406,RAJSAMMAND,25.018,73.055,,
AMET,406,RAJSAMAND,25.018,73.055,,
AMET,406,RAJSAMMAND,25.018,73.055,,
AMET,106,RAJSAMMAND,25.019,73.056,,
AMET,106,RAJSAMMAND,25.019,73.056,,
MASUDA,108,AJMER,26.07,74.07,,
NITHAWA,105,DUNGARPUR,23.055,74.018,,
NITHAWA,105,DUNGARPUR,23.022,73.054,,
NITHAWA,105,DUNGARPUR,23.05,73.04,,
NITHAWA,105,DUNGARPUR,23.055,74.018,,
NITHAWA,106,DUNGARPUR,23.036,73.046,,
NITHAWA,105,Dungarpur,2,7,,
NITHAWA,105,DUNGARPUR,23.055,74.018,,
NEEMRANA,403,ALWAR,28,76.03,,
NEEMRANA,403,ALWAR,28,76.03,,
NEEMRANA,403,Alwar,28,76.03,,
SANCHORE,108,JALORE,24.045,71.046,,
SANCHORE,108,JALORE,24.045,71.046,,
SANCHORE,108,JALORE,25.001,72.016,,
CHHABRA,405,BARAN,24.04,76.051,,
CHHABRA,405,KOTA,24.04,76.051,,
CHHABRA,405,KOTA,24.04,76.051,,
CHHABRA,405,Kota,2,7,,
CHHABRA,405,KOTA,24.04,76.051,,
GANGAPUR CITY,406,SAWAI MADHO,"260 29"" N","760 44"" E",,
GANGAPUR CITY,406,SAWAIMADHOPUR,"260 29"" N","760 44"" E",,
GANGAPUR CITY,406,Sawaimadhopur,"260 29"" N","760 44"" E",,
GANGAPUR CITY,406,DAUSA,"260 43"" N","770 01"" E",,
GANGAPUR CITY,406,Sawaimadhopur,"260 29"" N","760 44"" E",,
MOUNT ABU,107,SIROHI,24.06,72.043,,
MOUNT ABU,107,SIROHI,24.038,72.032,,
MOUNT ABU,107,SIROHI,24.08,72.051,,
MOUNT ABU,107,SIROHI,24.08,72.051,,
MOUNT ABU,107,0,24.08,72.051,,
MOUNT ABU,107,SIROHI,24.053,72.052,,
MOUNT ABU,107,SIROHI,24.06,72.043,,
MOUNT ABU,107,SIROHI,24.036,72.043,,
MOUNT ABU,107,SIROHI,24.06,72.043,,
ATRU,405,BARAN,24.052,76.04,,
ATRU,405,KOTA,24.052,76.04,,
ATRU,405,KOTA,24.052,76.04,,
ATRU,405,KOTA,24.056,76.017,,
ATRU,405,Kota,2,7,,
ATRU,405,KOTA,24.052,76.04,,
NADBAI,403,BHARATPUR,27.03,77,,
JHADOL,106,UDAIPUR,24.024,73.028,,
JHADOL,106,UDAIPUR,24.024,73.028,,
JHADOL,105,UDAIPUR,24.011,73.055,,
JHADOL,106,Udaipur,2,7,,
JHADOL,106,UDAIPUR,24.023,73.028,,
JHADOL,106,Udaipur,24.024,73.028,,
GANESHPUR,105,DUNGARPUR,23.057,73.054,,
GANESHPUR,105,DUNGARPUR,23.051,74.01,,
GANESHPUR,105,DUNGARPUR,23.057,73.054,,
GANESHPUR,105,DUNGARPUR,23.031,74,,
GANESHPUR,105,Dungarpur,2,7,,
GANESHPUR,105,DUNGARPUR,23.057,73.054,,
GANGANAGAR,202,GANGANAGAR,29.055,73.053,,
GANGANAGAR,202,GANGANAGAR,29.008,75.01,,
GANGANAGAR,202,GANGANAGAR,29.055,73.053,,
GANGANAGAR,202,Ganganagar,2,7,,
GANGANAGAR,202,GANGANAGAR,29.055,73.053,,
TAPUKARA,403,ALWAR,28.03,76.01,,
TAPUKARA,403,ALWAR,28.03,76.01,,
TAPUKARA,403,Alwar,28.03,76.01,,
TAPUKARA,403,ALWAR,27,77,,
KHANDAR,406,SAWAI MADHO,"260 01"" N","760 37"" E",,
KHANDAR,406,SAWAIMADHOPUR,"260 01"" N","760 37"" E",,
KHANDAR,406,Sawaimadhopur,"260 01"" N","760 37"" E",,
KHANDAR,406,Sawaimadhopur,"260 01"" N","760 37"" E",,
KHANDAR,406,Sawaimadhopur,"260 20"" N","760 14"" E",,
KHANDAR,406,Sawai Madhopur,2601,7637,,
KHANDAR,406,SAWAIMADHOPUR,"260 01"" N","760 37"" E",,
KUSHALGARH,105,BANSWARA,23.02,74.07,,
KUSHALGARH,105,Banswara,2,7,,
KUSHALGARH,105,BANSWARA,23.05,74.05,,
KUSHALGARH,105,BANSWARA,23.07,73.07,,
BHUNGRA,105,BANSWARA,23.01,74.01,,
BHUNGRA,105,BANSWARA,23.03,74.07,,
BHUNGRA,105,BANSWARA,23.05,74.05,,
BHUNGRA,105,BANSWARA,23.06,74.08,,
BHAINSRODGARH,404,CHITTORGARH,24.058,75.032,,
BHAINSRODGARH,404,CHITTORGARH,24.08,75.02,,
BHAINSRODGARH,404,Chittorgarh,2,7,,
BHAINSRODGARH,105,CHITTORGARH,24.05,74.01,,
GALIAKOT,105,DUNGARPUR,23.031,74,,
GALIAKOT,105,DUNGARPUR,23.058,74.004,,
GALIAKOT,105,DUNGARPUR,23.031,74,,
GALIAKOT,105,DUNGARPUR,23.051,73.043,,
GALIAKOT,105,Dungarpur,2,7,,
GALIAKOT,105,DUNGARPUR,23.031,74,,
DHARIAWAD,105,UDAIPUR,24.006,74.028,,
DHARIAWAD,105,UDAIPUR,24.006,74.028,,
DHARIAWAD,105,RAJSAMMAND,24.006,74.028,,
DHARIAWAD,105,UDAIPUR,24.008,74.003,,
DHARIAWAD,105,#REF!,24.006,74.028,,
DHARIAWAD,105,Udaipur,2,7,,
DHARIAWAD,105,Udaipur,24.006,74.028,,
DHARIAWAD,105,PRATAPGARH,24.006,74.028,,
DHARIAWAD,105,PRATAPGARH,24.006,74.028,,
DHARIAWAD,406,CHITTORGARH,24.01,74,,
DHARIAWAD,406,CHITTORGARH,24.03,74.08,,
SIROHI,107,SIROHI,24.053,72.052,,
SIROHI,107,SIROHI,24.06,72.043,,
SIROHI,107,SIROHI,24.053,72.052,,
SIROHI,107,SIROHI,24.047,73.003,,
SIROHI,107,Sirohi,2,7,,
SIROHI,107,SIROHI,24.053,72.052,,
CHIKHALI,105,DUNGARPUR,23.05,74.006,,
CHIKHALI,105,DUNGARPUR,23.05,74.006,,
AJAN BUNDH *,403,BHARATPUR,27.09,77.02,,
ASPUR,105,DUNGARPUR,23.058,74.004,,
ASPUR,105,DUNGARPUR,23.052,73.047,,
ASPUR,105,DUNGARPUR,23.058,74.004,,
ASPUR,105,Dungarpur,2,7,,
ASPUR,105,DUNGARPUR,23.058,74.004,,
KOTKASIM,403,ALWAR,28.02,76.03,,
KOTKASIM,403,ALWAR,28.02,76.03,,
KOTKASIM,403,Alwar,28.02,76.03,,
DHARIAWAD,105,UDAIPUR,24.006,74.028,,
DHARIAWAD,105,UDAIPUR,24.006,74.028,,
DHARIAWAD,105,RAJSAMMAND,24.006,74.028,,
DHARIAWAD,105,UDAIPUR,24.008,74.003,,
DHARIAWAD,105,#REF!,24.006,74.028,,
DHARIAWAD,105,Udaipur,2,7,,
DHARIAWAD,105,Udaipur,24.006,74.028,,
DHARIAWAD,105,PRATAPGARH,24.006,74.028,,
DHARIAWAD,105,PRATAPGARH,24.006,74.028,,
DHARIAWAD,406,CHITTORGARH,24.01,74,,
DHARIAWAD,406,CHITTORGARH,24.03,74.08,,
RAMGANJMANDI,405,KOTA,24.038,75.056,,
RAMGANJMANDI,405,Kota,24.038,75.056,,
CHHIPABAROD,405,BARAN,24.037,76.042,,
CHHIPABAROD,405,KOTA,24.037,76.042,,
CHHIPABAROD,405,KOTA,24.037,76.047,,
CHHIPABAROD,405,Kota,2,7,,
CHHIPABAROD,405,KOTA,24.037,76.042,,
DUNGLA,406,CHITTORGARH,24.031,74.02,,
DUNGLA,406,CHITTORGARH,24.01,74,,
DUNGLA,406,Chittorgarh,2,7,,
DUNGLA,105,CHITTORGARH,23.03,74.05,,
DUNGLA,404,CHITTORGARH,24.08,75.02,,
UDAIPUR ( GIRWA ),106,UDAIPUR,24.035,73.042,,
UDAIPUR ( GIRWA ),106,UDAIPUR,24.035,73.042,,
BAYANA,403,BHARATPUR,26.04,77.07,,
BAYANA,403,BHARATPUR,26.054,77.017,,
BAYANA,403,BHARATPUR,26.054,77.017,,
DHAMBOLA,106,DUNGARPUR,23.036,73.046,,
DHAMBOLA,105,DUNGARPUR,23.057,73.054,,
DHAMBOLA,106,DUNGARPUR,23.036,73.046,,
DHAMBOLA,106,Dungarpur,2,7,,
DHAMBOLA,106,DUNGARPUR,23.036,73.046,,
JAGPURA,105,BANSWARA,23.02,74.01,,
JAGPURA,105,BANSWARA,23.05,74.05,,
HANUMANGARH,202,GANGANAGAR,29.035,74.019,,
HANUMANGARH,202,HANUMANGARH,29.035,74.019,,
HANUMANGARH,202,HANUMANGARH,29.035,74.019,,
HANUMANGARH,202,GANGANAGAR,29.035,74.019,,
HANUMANGARH,202,Ganganagar,2,7,,
BASERI,403,DHOLPUR,26.045,77.032,,
BASERI,403,DHOLPUR,26.045,77.032,,
BASERI,403,BHARATPUR,26.045,77.032,,
ARTHUNA,105,BANSWARA,23,74.05,,
ARTHUNA,105,BANSWARA,23.03,74.005,,
ARTHUNA,105,BANSWARA,23.03,74.005,,
ARTHUNA,105,BANSWARA,23.05,74.06,,
BHIM,406,UDAIPUR,24.052,74,,
BHIM,106,UDAIPUR,24.035,73.042,,
BHIM,105,UDAIPUR,24.011,73.055,,
BHIM,106,UDAIPUR,25.045,74.005,,
BHIM,106,UDAIPUR,25.045,74.005,,
BHIM,105,UDAIPUR,23.059,73.036,,
BHIM,406,Udaipur,2,7,,
BHIM,406,UDAIPUR,25.045,74.005,,
BHIM,106,UDAIPUR,24.004,73.053,,
BHIM,106,UDAIPUR,24.022,73.01,,
BHIM,406,RAJSAMMAND,25.045,74.005,,
BHIM,406,RAJSAMAND,25.045,74.005,,
BHIM,406,RAJSAMMAND,25.045,74.005,,
BHIM,106,RAJSAMMAND,25.045,74.005,,
BHIM,106,RAJSAMMAND,25.045,74.005,,
DEWAL,105,DUNGARPUR,23.052,73.047,,
DEWAL,106,DUNGARPUR,23.036,73.046,,
DEWAL,105,DUNGARPUR,23.052,73.047,,
DEWAL,105,Dungarpur,2,7,,
DEWAL,105,DUNGARPUR,23.052,73.047,,
HINDON,406,KAROLI,26.043,77.001,,
HINDON,406,KAROLI,26.043,77.001,,
HINDON,406,SAWAI MADHO,26.043,77.001,,
HINDON,406,Sawaimadhopur,26.043,77.001,,
SIRMATHURA,403,DHOLPUR,26.031,77.022,,
SIRMATHURA,403,DHOLPUR,26.031,77.022,,
SIRMATHURA,403,BHARATPUR,26.031,77.022,,
SIRMATHURA,403,Bharatpur,26.031,77.022,,
DIGOD,405,KOTA,25.008,76.005,,
DIGOD,405,Kota,2,7,,
DIGOD,405,Kota,25.008,76.005,,
KOTRA,406,UDAIPUR,24.047,73.059,,
KOTRA,106,UDAIPUR,25.002,74.008,,
KOTRA,105,UDAIPUR,24.008,74.003,,
KOTRA,106,26,25.034,73.058,,
KOTRA,106,UDAIPUR,24.022,73.01,,
KOTRA,106,UDAIPUR,24.022,73.01,,
KOTRA,406,UDAIPUR,24.022,73.01,,
KOTRA,106,Udaipur,2,7,,
KOTRA,106,Udaipur,24.022,73.01,,
GHATOL,105,BANSWARA,23.05,74.05,,
GHATOL,105,BANSWARA,23.01,74.01,,
GHATOL,105,BANSWARA,23.05,74.05,,
DANPUR,105,BANSWARA,23.01,74.03,,
DANPUR,105,Banswara,2,7,,
DANPUR,105,BANSWARA,23,74,,
BANSWARA,105,BANSWARA,23.03,74.07,,
BANSWARA,105,Banswara,2,7,,
BANSWARA,105,BANSWARA,23.03,74.005,,
SAWAI MADHOPUR,405,SAWAI MADHO,25.059,76.022,,
SAWAI MADHOPUR,405,SAWAIMADHOPUR,25.059,76.022,,
SAWAI MADHOPUR,405,Sawaimadhopur,25.059,76.022,,
SAWAI MADHOPUR,405,Sawaimadhopur,25.059,76.022,,
SAWAI MADHOPUR,405,Sawai Madhopur,2,7,,
SAWAI MADHOPUR,405,SAWAIMADHOPUR,25.059,76.022,,
SARARA,106,UDAIPUR,24.022,73.01,,
SARARA,106,UDAIPUR,24.024,73.028,,
SARARA,105,UDAIPUR,24.006,74.028,,
SARARA,105,5.6,24.011,73.055,,
SARARA,105,UDAIPUR,24.011,73.055,,
SARARA,105,UDAIPUR,24.011,73.055,,
SARARA,106,UDAIPUR,24.024,73.028,,
SARARA,105,Udaipur,24.011,73.055,,
SARARA,105,UDAIPUR,23.059,73.036,,
RAJAKHERA,403,DHOLPUR,26.054,78.011,,
RAJAKHERA,403,DHOLPUR,26.054,78.011,,
RAJAKHERA,403,BHARATPUR,26.054,78.011,,
DUNGARPUR,105,DUNGARPUR,23.051,73.043,,
DUNGARPUR,105,DUNGARPUR,23.051,73.043,,
DUNGARPUR,105,DUNGARPUR,23.058,74.004,,
DUNGARPUR,105,Dungarpur,2,7,,
DUNGARPUR,105,Dungarpur,2,7,,
DUNGARPUR,105,DUNGARPUR,23.051,73.043,,
ARNOD ( HOSPITAL ),105,PRATAPGARH,23.053,74.075,,
ARNOD ( HOSPITAL ),105,PRATAPGARH,23.053,74.075,,
ARNOD ( HOSPITAL ),105,CHITTORGARH,23.053,74.075,,
ARNOD ( HOSPITAL ),105,CHITTORGARH,23.03,74.05,,
SAJJANGARH,105,BANSWARA,23.05,74.05,,
SAJJANGARH,105,BANSWARA,23.05,74.05,,
SAJJANGARH,105,BANSWARA,23.01,74.01,,
SAJJANGARH,105,BANSWARA,23.07,73.07,,
SHERGARH,108,JODHPUR,"260 20"" N","720 18"" E",,
SHERGARH,108,Jodhpur,2620,7218,,
SHERGARH,108,JODHPUR,"260 20"" N","720 18"" E",,
SHERGARH,105,BANSWARA,23020' N,74010' E,,
SHERGARH,105,Banswara,2320,7410,,
SHERGARH,105,BANSWARA,23030' N,74005' E,,
ALIGARH,406,TONK,26.01,75.048,,
RAILMAGRA,406,UDAIPUR,24.047,73.059,,
RAILMAGRA,106,UDAIPUR,25.002,74.008,,
RAILMAGRA,106,UDAIPUR,25.002,74.008,,
RAILMAGRA,106,RAJSAMAND,25.002,74.008,,
RAILMAGRA,406,Udaipur,2,7,,
RAILMAGRA,406,UDAIPUR,24.058,74.006,,
RAILMAGRA,406,RAJSAMMAND,24.058,74.006,,
RAILMAGRA,406,RAJSAMAND,24.058,74.006,,
RAILMAGRA,406,RAJSAMMAND,24.058,74.006,,
RAILMAGRA,106,RAJSAMAND,25.002,74.008,,
SALLOPAT,105,BANSWARA,23.05,74.06,,
SALLOPAT,105,BANSWARA,23.07,74.02,,
KAPASAN,406,CHITTORGARH,24.03,74.09,,
KAPASAN,406,Chittorgarh,2,7,,
KAPASAN,404,CHITTORGARH,24.09,75.08,,
LADPURA ( KOTA ),405,KOTA,24.053,75.057,,
LADPURA ( KOTA ),405,Kota,24.053,75.057,,
CHOTH KA BRWADA,405,SAWAIMADHOPUR,25.962,76.404,,
PIPAL KHUNT,105,PRATAPGARH,23.047,74.045,,
MANDANA,105,KOTA,24.942,75.94,,
BHOPALGARH,105,JODHPUR,26.645,73.49,,
MALARANA DUNGAR,405,SAWAIMADHOPUR,26.289,76.466,,
NAGAR FORT,405,TONK,25.898,75.828,,
VENJA,405,DUNGARPUR,23.686,73.701,,
PEEPLU,406,TONK,26.017,75.044,,
